Air Base Name,Longitude,Latitude
Jiquipitas,-93.603776,16.51343
Chimuselo,-91.903481,16.154307
Comalpa,-90.892469,14.668771
Liberia,-85.435511,10.609196
Caldera,-84.72874,9.971856
Fort Sherman,-79.972676,9.312288
Puerto Turco,-79.454822,9.028891
Bahia Malaga,-77.149852,4.056626
Larandia,-75.498133,1.281659